[{"number":"L32001","name":"Railroad Lot and Minuteman Bikeway","lat":"42.41606457","long":"-71.15336637","seasonal_status":"Year Round","municipality":"Arlington","total_docks":"11","station_id":"461"},{"number":"L32002","name":"Linwood St at Minuteman Bikeway","lat":"42.40935396","long":"-71.14906519","seasonal_status":"Year Round","municipality":"Arlington","total_docks":"11","station_id":"462"},{"number":"L32005","name":"Thorndike Field at Minuteman Bikeway","lat":"42.40016805","long":"-71.14456963","seasonal_status":"Year Round","municipality":"Arlington","total_docks":"11","station_id":"480"},{"number":"L32003","name":"Mass Ave at Grafton St","lat":"42.40726052","long":"-71.14382132","seasonal_status":"Winter Storage","municipality":"Arlington","total_docks":"11","station_id":"464"},{"number":"L32004","name":"Broadway at Grafton St","lat":"42.40994213","long":"-71.1400932","seasonal_status":"Winter Storage","municipality":"Arlington","total_docks":"11","station_id":"465"},{"number":"L32006","name":"Mass Ave at Broadway","lat":"42.41420213","long":"-71.15051883","seasonal_status":"Winter Storage","municipality":"Arlington","total_docks":"11","station_id":"510"},{"number":"A32000","name":"Fan Pier","lat":"42.35339051","long":"-71.0445714","seasonal_status":"Year Round","municipality":"Boston","total_docks":"15","station_id":"7"},{"number":"A32001","name":"Union Square - Brighton Ave at Cambridge St","lat":"42.353334","long":"-71.137313","seasonal_status":"Year Round","municipality":"Boston","total_docks":"19","station_id":"8"},{"number":"A32002","name":"Commonwealth Ave at Agganis Way","lat":"42.35169202","long":"-71.11903489","seasonal_status":"Year Round","municipality":"Boston","total_docks":"15","station_id":"9"},{"number":"A32003","name":"B.U. Central - 725 Comm. Ave.","lat":"42.350406","long":"-71.108279","seasonal_status":"Year Round","municipality":"Boston","total_docks":"11","station_id":"10"},{"number":"A32004","name":"Longwood Ave at Binney St","lat":"42.338629","long":"-71.1065","seasonal_status":"Year Round","municipality":"Boston","total_docks":"15","station_id":"11"},{"number":"A32005","name":"Brighton Mills - 370 Western Ave","lat":"42.36154571","long":"-71.13776207","seasonal_status":"Year Round","municipality":"Boston","total_docks":"15","station_id":"15"},{"number":"A32006","name":"Soldiers Field Park - 111 Western Ave","lat":"42.36426344","long":"-71.1182757","seasonal_status":"Year Round","municipality":"Boston","total_docks":"15","station_id":"17"},{"number":"A32008","name":"Park Dr at Buswell St","lat":"42.347241","long":"-71.105301","seasonal_status":"Year Round","municipality":"Boston","total_docks":"15","station_id":"19"},{"number":"A32009","name":"South End Library - Tremont St at W Newton St","lat":"42.341332","long":"-71.076847","seasonal_status":"Year Round","municipality":"Boston","total_docks":"15","station_id":"25"},{"number":"A32010","name":"South Station - 700 Atlantic Ave","lat":"42.352175","long":"-71.055547","seasonal_status":"Year Round","municipality":"Boston","total_docks":"47","station_id":"22"},{"number":"A32011","name":"Innovation Lab - 125 Western Ave at Batten Way","lat":"42.36371276","long":"-71.12459779","seasonal_status":"Year Round","municipality":"Boston","total_docks":"19","station_id":"29"},{"number":"A32012","name":"Packard's Corner - Commonwealth Ave at Brighton Ave","lat":"42.352261","long":"-71.123831","seasonal_status":"Year Round","municipality":"Boston","total_docks":"27","station_id":"41"},{"number":"A32013","name":"Surface Rd at India St","lat":"42.358155","long":"-71.052163","seasonal_status":"Year Round","municipality":"Boston","total_docks":"19","station_id":"151"},{"number":"A32017","name":"Commonwealth Ave at Griggs St","lat":"42.34922469","long":"-71.13275303","seasonal_status":"Year Round","municipality":"Boston","total_docks":"15","station_id":"66"},{"number":"A32019","name":"175 N Harvard St","lat":"42.36447457","long":"-71.12840831","seasonal_status":"Year Round","municipality":"Boston","total_docks":"18","station_id":"149"},{"number":"A32022","name":"Edwards Playground - Main St at Eden St","lat":"42.378965","long":"-71.068607","seasonal_status":"Year Round","municipality":"Boston","total_docks":"19","station_id":"169"},{"number":"A32023","name":"Bunker Hill Community College","lat":"42.37408991","long":"-71.06905997","seasonal_status":"Year Round","municipality":"Boston","total_docks":"23","station_id":"171"},{"number":"A32025","name":"Nashua Street at Red Auerbach Way","lat":"42.365673","long":"-71.064263","seasonal_status":"Year Round","municipality":"Boston","total_docks":"37","station_id":"190"},{"number":"A32026","name":"Purchase St at Pearl St","lat":"42.354659","long":"-71.053181","seasonal_status":"Year Round","municipality":"Boston","total_docks":"19","station_id":"192"},{"number":"A32028","name":"Bennington St at Byron St","lat":"42.38353252","long":"-71.01619095","seasonal_status":"Year Round","municipality":"Boston","total_docks":"15","station_id":"210"},{"number":"A32030","name":"Maverick Square - Lewis Mall","lat":"42.36884408","long":"-71.03977829","seasonal_status":"Year Round","municipality":"Boston","total_docks":"33","station_id":"212"},{"number":"A32031","name":"East Boston Neighborhood Health Center - 20 Maverick Square","lat":"42.369536","long":"-71.039431","seasonal_status":"Year Round","municipality":"Boston","total_docks":"16","station_id":"213"},{"number":"A32033","name":"The Eddy - New St at Sumner St","lat":"42.370744","long":"-71.044201","seasonal_status":"Year Round","municipality":"Boston","total_docks":"15","station_id":"215"},{"number":"A32035","name":"Orient Heights T Stop - Bennington St at Saratoga St","lat":"42.386781","long":"-71.006098","seasonal_status":"Year Round","municipality":"Boston","total_docks":"19","station_id":"217"},{"number":"A32036","name":"Boston East - 126 Border St","lat":"42.37331213","long":"-71.04102008","seasonal_status":"Year Round","municipality":"Boston","total_docks":"15","station_id":"219"},{"number":"A32039","name":"Bennington St at Constitution Beach","lat":"42.38522394","long":"-71.01063069","seasonal_status":"Year Round","municipality":"Boston","total_docks":"17","station_id":"355"},{"number":"A32040","name":"Honan Library","lat":"42.3602737","long":"-71.12852452","seasonal_status":"Year Round","municipality":"Boston","total_docks":"15","station_id":"376"},{"number":"A32041","name":"Central Square East Boston","lat":"42.37544913","long":"-71.03918549","seasonal_status":"Year Round","municipality":"Boston","total_docks":"15","station_id":"419"},{"number":"A32042","name":"Surface Rd at Summer St","lat":"42.3529457","long":"-71.05656401","seasonal_status":"Year Round","municipality":"Boston","total_docks":"27","station_id":"426"},{"number":"A32044","name":"Maverick St at Massport Path","lat":"42.36774122","long":"-71.03335975","seasonal_status":"Year Round","municipality":"Boston","total_docks":"15","station_id":"436"},{"number":"A32045","name":"Boston Landing","lat":"42.35656092","long":"-71.14167538","seasonal_status":"Year Round","municipality":"Boston","total_docks":"17","station_id":"440"},{"number":"A32049","name":"Gove St at Orleans St","lat":"42.37057753","long":"-71.0355854","seasonal_status":"Year Round","municipality":"Boston","total_docks":"19","station_id":"478"},{"number":"A32050","name":"Porzio Park","lat":"42.36411904","long":"-71.02876782","seasonal_status":"Year Round","municipality":"Boston","total_docks":"17","station_id":"483"},{"number":"A32051","name":"Day Sq","lat":"42.379295","long":"-71.027733","seasonal_status":"Year Round","municipality":"Boston","total_docks":"16","station_id":"489"},{"number":"A32052","name":"Harvard Stadium: N. Harvard St at Soldiers Field Rd","lat":"42.368019","long":"-71.1242","seasonal_status":"Year Round","municipality":"Boston","total_docks":"15","station_id":"492"},{"number":"A32053","name":"Valenti Way at Haverhill St","lat":"42.36473899","long":"-71.05934903","seasonal_status":"Year Round","municipality":"Boston","total_docks":"24","station_id":"549"},{"number":"B32002","name":"Ruggles T Stop - Columbus Ave at Melnea Cass Blvd","lat":"42.33624445","long":"-71.08798563","seasonal_status":"Year Round","municipality":"Boston","total_docks":"26","station_id":"12"},{"number":"B32003","name":"HMS/HSPH - Avenue Louis Pasteur at Longwood Ave","lat":"42.33741748","long":"-71.10286117","seasonal_status":"Year Round","municipality":"Boston","total_docks":"25","station_id":"14"},{"number":"B32004","name":"Aquarium T Stop - 200 Atlantic Ave","lat":"42.36044136","long":"-71.0504394","seasonal_status":"Year Round","municipality":"Boston","total_docks":"23","station_id":"20"},{"number":"B32005","name":"Christian Science Plaza - Massachusetts Ave at Westland Ave","lat":"42.34366582","long":"-71.08582377","seasonal_status":"Year Round","municipality":"Boston","total_docks":"19","station_id":"46"},{"number":"B32006","name":"Colleges of the Fenway - Fenway at Avenue Louis Pasteur","lat":"42.34011512","long":"-71.10061884","seasonal_status":"Year Round","municipality":"Boston","total_docks":"15","station_id":"3"},{"number":"B32007","name":"Seaport Square - Seaport Blvd at Northern Ave","lat":"42.35148193","long":"-71.04436085","seasonal_status":"Year Round","municipality":"Boston","total_docks":"23","station_id":"24"},{"number":"B32008","name":"Boston City Hall - 28 State St","lat":"42.35892","long":"-71.057629","seasonal_status":"Year Round","municipality":"Boston","total_docks":"25","station_id":"23"},{"number":"B32010","name":"Kenmore Square","lat":"42.348706","long":"-71.097009","seasonal_status":"Year Round","municipality":"Boston","total_docks":"27","station_id":"33"},{"number":"B32013","name":"Brigham Circle - Francis St at Huntington Ave","lat":"42.33462893","long":"-71.10407918","seasonal_status":"Year Round","municipality":"Boston","total_docks":"15","station_id":"30"},{"number":"B32014","name":"Seaport Hotel - Congress St at Seaport Ln","lat":"42.34881026","long":"-71.04167744","seasonal_status":"Year Round","municipality":"Boston","total_docks":"19","station_id":"31"},{"number":"B32015","name":"Landmark Center - Brookline Ave at Park Dr","lat":"42.34369056","long":"-71.10235287","seasonal_status":"Year Round","municipality":"Boston","total_docks":"15","station_id":"32"},{"number":"B32017","name":"Dudley Square - Bolling Building","lat":"42.32984299","long":"-71.08386572","seasonal_status":"Year Round","municipality":"Boston","total_docks":"18","station_id":"56"},{"number":"B32018","name":"Boylston St at Massachusetts Ave","lat":"42.34740621","long":"-71.08678415","seasonal_status":"Year Round","municipality":"Boston","total_docks":"15","station_id":"55"},{"number":"B32020","name":"Burlington Ave at Brookline Ave","lat":"42.345733","long":"-71.100694","seasonal_status":"Year Round","municipality":"Boston","total_docks":"15","station_id":"122"},{"number":"B32021","name":"Wentworth Institute of Technology - Huntington Ave at Vancouver St","lat":"42.33758601","long":"-71.09627098","seasonal_status":"Year Round","municipality":"Boston","total_docks":"14","station_id":"160"},{"number":"B32022","name":"Roxbury YMCA - Warren St at MLK Blvd","lat":"42.31787329","long":"-71.08243078","seasonal_status":"Year Round","municipality":"Boston","total_docks":"10","station_id":"196"},{"number":"B32023","name":"MLK Blvd at Washington St","lat":"42.32143814","long":"-71.09126061","seasonal_status":"Year Round","municipality":"Boston","total_docks":"15","station_id":"197"},{"number":"B32026","name":"Washington St at Melnea Cass Blvd","lat":"42.332817","long":"-71.081198","seasonal_status":"Year Round","municipality":"Boston","total_docks":"19","station_id":"200"},{"number":"B32027","name":"NCAAA - Walnut Ave at Crawford St","lat":"42.316902","long":"-71.091946","seasonal_status":"Year Round","municipality":"Boston","total_docks":"15","station_id":"201"},{"number":"B32028","name":"Grove Hall Library - 41 Geneva Ave","lat":"42.30791","long":"-71.080952","seasonal_status":"Year Round","municipality":"Boston","total_docks":"15","station_id":"202"},{"number":"B32029","name":"Columbia Rd at Ceylon St","lat":"42.309572","long":"-71.0729","seasonal_status":"Year Round","municipality":"Boston","total_docks":"15","station_id":"203"},{"number":"B32031","name":"Bowdoin St at Quincy St","lat":"42.30785224","long":"-71.06512249","seasonal_status":"Year Round","municipality":"Boston","total_docks":"15","station_id":"205"},{"number":"B32032","name":"Government Center - Cambridge St at Court St","lat":"42.3598254","long":"-71.05979576","seasonal_status":"Year Round","municipality":"Boston","total_docks":"35","station_id":"206"},{"number":"B32033","name":"Huntington Ave at Mass Art","lat":"42.33658555","long":"-71.09886996","seasonal_status":"Year Round","municipality":"Boston","total_docks":"15","station_id":"331"},{"number":"B32034","name":"Boylston St at Jersey St","lat":"42.34465063","long":"-71.09732501","seasonal_status":"Year Round","municipality":"Boston","total_docks":"15","station_id":"342"},{"number":"B32035","name":"Cleveland Circle","lat":"42.33554308","long":"-71.1506152","seasonal_status":"Year Round","municipality":"Boston","total_docks":"15","station_id":"346"},{"number":"B32036","name":"One Brigham Circle","lat":"42.3339227","long":"-71.10446509","seasonal_status":"Year Round","municipality":"Boston","total_docks":"15","station_id":"359"},{"number":"B32037","name":"Deerfield St at Commonwealth Ave","lat":"42.34924377","long":"-71.0972821","seasonal_status":"Year Round","municipality":"Boston","total_docks":"19","station_id":"361"},{"number":"B32055","name":"Bartlett St at John Elliot Sq","lat":"42.3294633","long":"-71.0901582","seasonal_status":"Year Round","municipality":"Boston","total_docks":"15","station_id":"360"},{"number":"B32056","name":"Tremont St at Hamilton Pl","lat":"42.35668335","long":"-71.06166646","seasonal_status":"Year Round","municipality":"Boston","total_docks":"19","station_id":"374"},{"number":"B32058","name":"Lansdowne T Stop","lat":"42.34734473","long":"-71.10016808","seasonal_status":"Year Round","municipality":"Boston","total_docks":"27","station_id":"400"},{"number":"B32059","name":"Whittier St Health Center","lat":"42.33286288","long":"-71.09218862","seasonal_status":"Year Round","municipality":"Boston","total_docks":"19","station_id":"443"},{"number":"B32060","name":"700 Commonwealth Ave.","lat":"42.34960945","long":"-71.10391524","seasonal_status":"Year Round","municipality":"Boston","total_docks":"16","station_id":"446"},{"number":"B32061","name":"One Beacon St","lat":"42.35847764","long":"-71.0613513","seasonal_status":"Year Round","municipality":"Boston","total_docks":"16","station_id":"529"},{"number":"C32000","name":"Tremont St at E Berkeley St","lat":"42.345392","long":"-71.069616","seasonal_status":"Year Round","municipality":"Boston","total_docks":"19","station_id":"4"},{"number":"C32001","name":"Roxbury Crossing T Stop - Columbus Ave at Tremont St","lat":"42.331184","long":"-71.095171","seasonal_status":"Year Round","municipality":"Boston","total_docks":"23","station_id":"27"},{"number":"C32003","name":"Back Bay T Stop - Dartmouth St at Stuart St","lat":"42.34807412","long":"-71.07657015","seasonal_status":"Year Round","municipality":"Boston","total_docks":"19","station_id":"16"},{"number":"C32004","name":"Massachusetts Ave at Columbus Ave","lat":"42.340835","long":"-71.0816197","seasonal_status":"Year Round","municipality":"Boston","total_docks":"14","station_id":"57"},{"number":"C32005","name":"Washington St at Lenox St","lat":"42.33509899","long":"-71.07903779","seasonal_status":"Year Round","municipality":"Boston","total_docks":"15","station_id":"51"},{"number":"C32006","name":"Washington St at Rutland St","lat":"42.3385146","long":"-71.07404083","seasonal_status":"Year Round","municipality":"Boston","total_docks":"27","station_id":"39"},{"number":"C32007","name":"Prudential Center - 101 Huntington Ave","lat":"42.34652004","long":"-71.08065777","seasonal_status":"Year Round","municipality":"Boston","total_docks":"18","station_id":"21"},{"number":"C32008","name":"Boylston St at Fairfield St","lat":"42.34880382","long":"-71.08236909","seasonal_status":"Year Round","municipality":"Boston","total_docks":"19","station_id":"61"},{"number":"C32009","name":"Dorchester Ave at Gillette Park","lat":"42.34404051","long":"-71.05737627","seasonal_status":"Year Round","municipality":"Boston","total_docks":"15","station_id":"63"},{"number":"C32013","name":"JFK/UMass T Stop","lat":"42.32033974","long":"-71.05118036","seasonal_status":"Year Round","municipality":"Boston","total_docks":"31","station_id":"93"},{"number":"C32014","name":"University of Massachusetts Boston - Campus Center","lat":"42.31218918","long":"-71.03648586","seasonal_status":"Year Round","municipality":"Boston","total_docks":"19","station_id":"92"},{"number":"C32016","name":"W Broadway at Dorchester St","lat":"42.33595898","long":"-71.046229","seasonal_status":"Year Round","municipality":"Boston","total_docks":"17","station_id":"121"},{"number":"C32017","name":"South Boston Library - 646 E Broadway","lat":"42.335741","long":"-71.03877","seasonal_status":"Year Round","municipality":"Boston","total_docks":"15","station_id":"119"},{"number":"C32020","name":"ID Building East","lat":"42.344827","long":"-71.028664","seasonal_status":"Year Round","municipality":"Boston","total_docks":"17","station_id":"135"},{"number":"C32021","name":"ID Building West","lat":"42.344796","long":"-71.031614","seasonal_status":"Year Round","municipality":"Boston","total_docks":"19","station_id":"136"},{"number":"C32022","name":"Newmarket Square T Stop - Massachusetts Ave at Newmarket Square","lat":"42.326599","long":"-71.066498","seasonal_status":"Year Round","municipality":"Boston","total_docks":"15","station_id":"138"},{"number":"C32023","name":"Murphy Skating Rink - 1880 Day Blvd","lat":"42.336448","long":"-71.023739","seasonal_status":"Year Round","municipality":"Boston","total_docks":"19","station_id":"146"},{"number":"C32024","name":"State Street at Channel Center","lat":"42.344137","long":"-71.052608","seasonal_status":"Year Round","municipality":"Boston","total_docks":"19","station_id":"150"},{"number":"C32025","name":"Ink Block - Harrison Ave at Herald St","lat":"42.345901","long":"-71.063187","seasonal_status":"Year Round","municipality":"Boston","total_docks":"27","station_id":"152"},{"number":"C32027","name":"Franklin Park - Seaver St at Humboldt Ave","lat":"42.309796","long":"-71.092225","seasonal_status":"Year Round","municipality":"Boston","total_docks":"15","station_id":"162"},{"number":"C32028","name":"The Lawn on D","lat":"42.344792","long":"-71.044024","seasonal_status":"Year Round","municipality":"Boston","total_docks":"19","station_id":"163"},{"number":"C32029","name":"W Broadway at D St","lat":"42.3391085","long":"-71.0514432","seasonal_status":"Year Round","municipality":"Boston","total_docks":"23","station_id":"161"},{"number":"C32030","name":"Franklin Park Zoo - Franklin Park Rd at Blue Hill Ave","lat":"42.303469","long":"-71.085347","seasonal_status":"Year Round","municipality":"Boston","total_docks":"14","station_id":"170"},{"number":"C32032","name":"Congress St at Northern Ave","lat":"42.3481","long":"-71.03764","seasonal_status":"Year Round","municipality":"Boston","total_docks":"15","station_id":"186"},{"number":"C32033","name":"Savin Hill T Stop - S Sydney St at Bay St","lat":"42.3106","long":"-71.0539","seasonal_status":"Year Round","municipality":"Boston","total_docks":"14","station_id":"173"},{"number":"C32034","name":"Watermark Seaport - Boston Wharf Rd at Seaport Blvd","lat":"42.351586","long":"-71.04569256","seasonal_status":"Year Round","municipality":"Boston","total_docks":"15","station_id":"218"},{"number":"C32035","name":"Troy Boston","lat":"42.343749","long":"-71.062256","seasonal_status":"Year Round","municipality":"Boston","total_docks":"14","station_id":"222"},{"number":"C32036","name":"Seaport Blvd at Sleeper St","lat":"42.35317809","long":"-71.04817357","seasonal_status":"Year Round","municipality":"Boston","total_docks":"15","station_id":"157"},{"number":"C32037","name":"Four Corners - 157 Washington St","lat":"42.30412793","long":"-71.07929528","seasonal_status":"Year Round","municipality":"Boston","total_docks":"11","station_id":"232"},{"number":"C32038","name":"Washington St at Talbot Ave","lat":"42.290333","long":"-71.071806","seasonal_status":"Year Round","municipality":"Boston","total_docks":"17","station_id":"349"},{"number":"C32040","name":"Gallivan Blvd at Adams St","lat":"42.28297568","long":"-71.05466698","seasonal_status":"Year Round","municipality":"Boston","total_docks":"15","station_id":"258"},{"number":"C32041","name":"Fields Corner T Stop","lat":"42.29963349","long":"-71.06068976","seasonal_status":"Year Round","municipality":"Boston","total_docks":"15","station_id":"260"},{"number":"C32043","name":"Talbot Ave At Blue Hill Ave","lat":"42.2945833","long":"-71.087111","seasonal_status":"Year Round","municipality":"Boston","total_docks":"15","station_id":"348"},{"number":"C32044","name":"Blue Hill Ave at Almont St","lat":"42.27462067","long":"-71.09372552","seasonal_status":"Year Round","municipality":"Boston","total_docks":"19","station_id":"340"},{"number":"C32045","name":"Mattapan T Stop","lat":"42.267902","long":"-71.093641","seasonal_status":"Year Round","municipality":"Boston","total_docks":"15","station_id":"336"},{"number":"C32046","name":"Roslindale Village - Washington St","lat":"42.28630716","long":"-71.12820532","seasonal_status":"Year Round","municipality":"Boston","total_docks":"15","station_id":"341"},{"number":"C32047","name":"Roslindale Village - South St","lat":"42.287072","long":"-71.127754","seasonal_status":"Year Round","municipality":"Boston","total_docks":"15","station_id":"337"},{"number":"C32048","name":"Archdale Rd at Washington St","lat":"42.29266593","long":"-71.12119539","seasonal_status":"Year Round","municipality":"Boston","total_docks":"15","station_id":"339"},{"number":"C32050","name":"Mattapan Library","lat":"42.2773889","long":"-71.09325","seasonal_status":"Year Round","municipality":"Boston","total_docks":"15","station_id":"353"},{"number":"C32051","name":"Farragut Rd at E. 6th St","lat":"42.3334","long":"-71.02495","seasonal_status":"Year Round","municipality":"Boston","total_docks":"23","station_id":"296"},{"number":"C32052","name":"Columbia Rd at Tierney Community Center","lat":"42.33023071","long":"-71.05060093","seasonal_status":"Year Round","municipality":"Boston","total_docks":"19","station_id":"362"},{"number":"C32053","name":"Broadway T Stop","lat":"42.34304858","long":"-71.0580343","seasonal_status":"Year Round","municipality":"Boston","total_docks":"19","station_id":"366"},{"number":"C32055","name":"Codman Square Library","lat":"42.2873611","long":"-71.071111","seasonal_status":"Year Round","municipality":"Boston","total_docks":"17","station_id":"350"},{"number":"C32056","name":"Tremont St at Northampton St","lat":"42.3384318","long":"-71.0816905","seasonal_status":"Year Round","municipality":"Boston","total_docks":"19","station_id":"364"},{"number":"C32057","name":"Harrison Ave at Mullins Way","lat":"42.34521562","long":"-71.06384031","seasonal_status":"Year Round","municipality":"Boston","total_docks":"19","station_id":"363"},{"number":"C32059","name":"Belgrade Ave at Walworth St","lat":"42.28634589","long":"-71.1367213","seasonal_status":"Year Round","municipality":"Boston","total_docks":"15","station_id":"373"},{"number":"C32060","name":"Tremont St at W. Dedham St","lat":"42.34254914","long":"-71.07421449","seasonal_status":"Year Round","municipality":"Boston","total_docks":"15","station_id":"379"},{"number":"C32061","name":"Albany St at E. Brookline St","lat":"42.33664795","long":"-71.0689446","seasonal_status":"Year Round","municipality":"Boston","total_docks":"15","station_id":"385"},{"number":"C32062","name":"Ashmont T Stop","lat":"42.2856944","long":"-71.0641389","seasonal_status":"Year Round","municipality":"Boston","total_docks":"15","station_id":"271"},{"number":"C32063","name":"Mass Ave T Station","lat":"42.34135616","long":"-71.08336953","seasonal_status":"Year Round","municipality":"Boston","total_docks":"16","station_id":"404"},{"number":"C32064","name":"Sydney St at Carson St","lat":"42.32039374","long":"-71.05355408","seasonal_status":"Year Round","municipality":"Boston","total_docks":"19","station_id":"405"},{"number":"C32066","name":"Dorchester Ave at King St","lat":"42.291718","long":"-71.062571","seasonal_status":"Year Round","municipality":"Boston","total_docks":"15","station_id":"No ID pre-March 2023"},{"number":"C32077","name":"Columbus Ave at W. Canton St","lat":"42.34474225","long":"-71.07648162","seasonal_status":"Year Round","municipality":"Boston","total_docks":"19","station_id":"417"},{"number":"C32079","name":"American Legion Hwy at Cummins Hwy","lat":"42.27881158","long":"-71.11687703","seasonal_status":"Year Round","municipality":"Boston","total_docks":"15","station_id":"422"},{"number":"C32085","name":"Centre St at W. Roxbury Post Office","lat":"42.28633199","long":"-71.15344755","seasonal_status":"Year Round","municipality":"Boston","total_docks":"19","station_id":"432"},{"number":"C32086","name":"Centre St at Parkway YMCA","lat":"42.28277901","long":"-71.15728851","seasonal_status":"Year Round","municipality":"Boston","total_docks":"19","station_id":"433"},{"number":"C32087","name":"Spring St at Powell St","lat":"42.27748444","long":"-71.16341468","seasonal_status":"Year Round","municipality":"Boston","total_docks":"19","station_id":"434"},{"number":"C32089","name":"Hyde Park Ave at Walk Hill St","lat":"42.29606705","long":"-71.116012","seasonal_status":"Year Round","municipality":"Boston","total_docks":"15","station_id":"442"},{"number":"C32090","name":"Geiger Gibson Community Health Center","lat":"42.31886468","long":"-71.04536798","seasonal_status":"Year Round","municipality":"Boston","total_docks":"19","station_id":"445"},{"number":"C32091","name":"645 Summer St","lat":"42.34178089","long":"-71.03987017","seasonal_status":"Year Round","municipality":"Boston","total_docks":"19","station_id":"481"},{"number":"C32092","name":"Blue Hill Ave at Havelock St","lat":"42.286012","long":"-71.090986","seasonal_status":"Year Round","municipality":"Boston","total_docks":"18","station_id":"490"},{"number":"C32093","name":"Harrison Ave at E. Dedham St","lat":"42.339194","long":"-71.06975","seasonal_status":"Year Round","municipality":"Boston","total_docks":"19","station_id":"491"},{"number":"C32094","name":"2 Hummingbird Lane at Olmsted Green","lat":"42.28887","long":"-71.095003","seasonal_status":"Year Round","municipality":"Boston","total_docks":"17","station_id":"493"},{"number":"C32099","name":"Circuit Drive at American Legion Hwy","lat":"42.29704126","long":"-71.09171927","seasonal_status":"Year Round","municipality":"Boston","total_docks":"19","station_id":"538"},{"number":"C32102","name":"Walnut Ave at School St","lat":"42.31242399","long":"-71.09616905","seasonal_status":"Year Round","municipality":"Boston","total_docks":"19","station_id":"539"},{"number":"C32103","name":"Morton St at Gallivan Blvd","lat":"42.278747","long":"-71.080286","seasonal_status":"Year Round","municipality":"Boston","total_docks":"15","station_id":"545"},{"number":"C32104","name":"Cleary Sq","lat":"42.2556","long":"-71.12444","seasonal_status":"Year Round","municipality":"Boston","total_docks":"16","station_id":"546"},{"number":"C32105","name":"606 American Legion Hwy at Canterbury St","lat":"42.28578","long":"-71.109725","seasonal_status":"Year Round","municipality":"Boston","total_docks":"18","station_id":"547"},{"number":"C32106","name":"555 Metropolitan Ave","lat":"42.2681","long":"-71.11924","seasonal_status":"Year Round","municipality":"Boston","total_docks":"18","station_id":"548"},{"number":"D32000","name":"Cambridge St at Joy St","lat":"42.36125722","long":"-71.06528744","seasonal_status":"Year Round","municipality":"Boston","total_docks":"15","station_id":"6"},{"number":"D32001","name":"New Balance - 20 Guest St","lat":"42.35732922","long":"-71.1467354","seasonal_status":"Year Round","municipality":"Boston","total_docks":"15","station_id":"37"},{"number":"D32002","name":"Washington St at Waltham St","lat":"42.34157472","long":"-71.0689044","seasonal_status":"Year Round","municipality":"Boston","total_docks":"15","station_id":"26"},{"number":"D32005","name":"Copley Square - Dartmouth St at Boylston St","lat":"42.34992828","long":"-71.07739207","seasonal_status":"Year Round","municipality":"Boston","total_docks":"33","station_id":"36"},{"number":"D32006","name":"Lewis Wharf at Atlantic Ave","lat":"42.363871","long":"-71.050877","seasonal_status":"Year Round","municipality":"Boston","total_docks":"19","station_id":"40"},{"number":"D32007","name":"Boylston St at Arlington St","lat":"42.352808","long":"-71.067585","seasonal_status":"Year Round","municipality":"Boston","total_docks":"31","station_id":"42"},{"number":"D32008","name":"Rowes Wharf at Atlantic Ave","lat":"42.357143","long":"-71.050699","seasonal_status":"Year Round","municipality":"Boston","total_docks":"15","station_id":"43"},{"number":"D32009","name":"Congress St at Boston City Hall","lat":"42.36041775","long":"-71.05752244","seasonal_status":"Year Round","municipality":"Boston","total_docks":"23","station_id":"44"},{"number":"D32010","name":"Cross St at Hanover St","lat":"42.362811","long":"-71.056067","seasonal_status":"Year Round","municipality":"Boston","total_docks":"19","station_id":"47"},{"number":"D32011","name":"Stuart St at Charles St","lat":"42.351146","long":"-71.066289","seasonal_status":"Year Round","municipality":"Boston","total_docks":"18","station_id":"49"},{"number":"D32013","name":"Boylston St at Berkeley St","lat":"42.35114198","long":"-71.07329249","seasonal_status":"Year Round","municipality":"Boston","total_docks":"15","station_id":"50"},{"number":"D32014","name":"Tremont St at West St","lat":"42.354979","long":"-71.063348","seasonal_status":"Year Round","municipality":"Boston","total_docks":"15","station_id":"54"},{"number":"D32015","name":"Chinatown Gate Plaza","lat":"42.351356","long":"-71.059367","seasonal_status":"Year Round","municipality":"Boston","total_docks":"19","station_id":"59"},{"number":"D32016","name":"Charles Circle - Charles St at Cambridge St","lat":"42.36079297","long":"-71.07118962","seasonal_status":"Year Round","municipality":"Boston","total_docks":"19","station_id":"60"},{"number":"D32017","name":"Mugar Way at Beacon St","lat":"42.35553628","long":"-71.0728687","seasonal_status":"Year Round","municipality":"Boston","total_docks":"19","station_id":"58"},{"number":"D32018","name":"Boston Convention and Exhibition Center - Summer St at West Side Dr","lat":"42.34776345","long":"-71.04535997","seasonal_status":"Year Round","municipality":"Boston","total_docks":"23","station_id":"65"},{"number":"D32019","name":"Chinatown T Stop","lat":"42.352409","long":"-71.062679","seasonal_status":"Year Round","municipality":"Boston","total_docks":"19","station_id":"81"},{"number":"D32020","name":"Main St at Austin St","lat":"42.375603","long":"-71.064608","seasonal_status":"Year Round","municipality":"Boston","total_docks":"11","station_id":"94"},{"number":"D32021","name":"Warren St at Chelsea St","lat":"42.371848","long":"-71.060292","seasonal_status":"Year Round","municipality":"Boston","total_docks":"23","station_id":"98"},{"number":"D32022","name":"West End Park","lat":"42.36590788","long":"-71.06446669","seasonal_status":"Year Round","municipality":"Boston","total_docks":"35","station_id":"109"},{"number":"D32023","name":"Spaulding Rehabilitation Hospital - Charlestown Navy Yard","lat":"42.378338","long":"-71.048927","seasonal_status":"Year Round","municipality":"Boston","total_docks":"19","station_id":"85"},{"number":"D32024","name":"Beacon St at Charles St","lat":"42.356052","long":"-71.069849","seasonal_status":"Year Round","municipality":"Boston","total_docks":"19","station_id":"120"},{"number":"D32028","name":"Brighton Center - Washington St at Cambridge St","lat":"42.34894857","long":"-71.15027189","seasonal_status":"Year Round","municipality":"Boston","total_docks":"17","station_id":"175"},{"number":"D32029","name":"Washington St at Brock St","lat":"42.34895285","long":"-71.16031677","seasonal_status":"Year Round","municipality":"Boston","total_docks":"15","station_id":"174"},{"number":"D32031","name":"Oak Square - 615 Washington St","lat":"42.35057","long":"-71.166491","seasonal_status":"Year Round","municipality":"Boston","total_docks":"15","station_id":"208"},{"number":"D32032","name":"Silber Way","lat":"42.349496","long":"-71.10057592","seasonal_status":"Year Round","municipality":"Boston","total_docks":"19","station_id":"227"},{"number":"D32033","name":"Commonwealth Ave at Chiswick Rd","lat":"42.34024645","long":"-71.15168806","seasonal_status":"Year Round","municipality":"Boston","total_docks":"19","station_id":"344"},{"number":"D32034","name":"Commonwealth Ave at Kelton St","lat":"42.34835863","long":"-71.13997217","seasonal_status":"Year Round","municipality":"Boston","total_docks":"15","station_id":"338"},{"number":"D32035","name":"Harvard Ave at Brainerd Rd","lat":"42.34953017","long":"-71.13022771","seasonal_status":"Year Round","municipality":"Boston","total_docks":"15","station_id":"332"},{"number":"D32036","name":"Main St at Baldwin St","lat":"42.380857","long":"-71.070629","seasonal_status":"Year Round","municipality":"Boston","total_docks":"19","station_id":"280"},{"number":"D32037","name":"Medford St at Charlestown BCYF","lat":"42.38042947","long":"-71.06055722","seasonal_status":"Year Round","municipality":"Boston","total_docks":"19","station_id":"358"},{"number":"D32038","name":"Main St at Thompson Sq","lat":"42.37487847","long":"-71.06383499","seasonal_status":"Year Round","municipality":"Boston","total_docks":"15","station_id":"327"},{"number":"D32039","name":"Charlestown Navy Yard","lat":"42.37412455","long":"-71.054812","seasonal_status":"Year Round","municipality":"Boston","total_docks":"23","station_id":"356"},{"number":"D32040","name":"Williams St at Washington St","lat":"42.306539","long":"-71.107669","seasonal_status":"Year Round","municipality":"Boston","total_docks":"23","station_id":"279"},{"number":"D32041","name":"Stony Brook T Stop","lat":"42.316966","long":"-71.104374","seasonal_status":"Year Round","municipality":"Boston","total_docks":"19","station_id":"282"},{"number":"D32042","name":"Park Plaza at Charles St S.","lat":"42.35182807","long":"-71.06781138","seasonal_status":"Year Round","municipality":"Boston","total_docks":"19","station_id":"345"},{"number":"D32043","name":"Harrison Ave at Bennet St","lat":"42.3494261","long":"-71.0620996","seasonal_status":"Year Round","municipality":"Boston","total_docks":"19","station_id":"365"},{"number":"D32045","name":"Dartmouth St at Newbury St","lat":"42.35096144","long":"-71.07782811","seasonal_status":"Year Round","municipality":"Boston","total_docks":"19","station_id":"370"},{"number":"D32046","name":"Boylston St at Exeter St","lat":"42.34958942","long":"-71.07946779","seasonal_status":"Year Round","municipality":"Boston","total_docks":"19","station_id":"372"},{"number":"D32048","name":"Shawmut Ave at Oak St W","lat":"42.34854543","long":"-71.06559185","seasonal_status":"Year Round","municipality":"Boston","total_docks":"15","station_id":"399"},{"number":"D32049","name":"Stuart St at Berkeley St","lat":"42.34954403","long":"-71.07242074","seasonal_status":"Year Round","municipality":"Boston","total_docks":"19","station_id":"415"},{"number":"D32052","name":"Jamaica St at South St","lat":"42.30604563","long":"-71.11570891","seasonal_status":"Year Round","municipality":"Boston","total_docks":"19","station_id":"424"},{"number":"D32053","name":"Sullivan Square","lat":"42.38445226","long":"-71.07514855","seasonal_status":"Year Round","municipality":"Boston","total_docks":"19","station_id":"441"},{"number":"D32054","name":"The Overlook at St. Gabriel's","lat":"42.34679008","long":"-71.14549814","seasonal_status":"Year Round","municipality":"Boston","total_docks":"19","station_id":"447"},{"number":"D32057","name":"Clinton St at North St","lat":"42.36070284","long":"-71.05524927","seasonal_status":"Year Round","municipality":"Boston","total_docks":"18","station_id":"536"},{"number":"E32001","name":"Curtis Hall - South St at Centre St","lat":"42.309054","long":"-71.11543","seasonal_status":"Year Round","municipality":"Boston","total_docks":"15","station_id":"124"},{"number":"E32003","name":"Hyde Square - Barbara St at Centre St","lat":"42.32176526","long":"-71.10984161","seasonal_status":"Year Round","municipality":"Boston","total_docks":"15","station_id":"125"},{"number":"E32004","name":"Egleston Square - Atherton St at Washington St","lat":"42.315692","long":"-71.098634","seasonal_status":"Year Round","municipality":"Boston","total_docks":"15","station_id":"126"},{"number":"E32005","name":"Green Street T Stop - Green St at Amory St","lat":"42.310579","long":"-71.107341","seasonal_status":"Year Round","municipality":"Boston","total_docks":"23","station_id":"133"},{"number":"E32006","name":"Jackson Square T Stop","lat":"42.32293117","long":"-71.10014141","seasonal_status":"Year Round","municipality":"Boston","total_docks":"18","station_id":"131"},{"number":"E32007","name":"S Huntington Ave at Heath St","lat":"42.32760387","long":"-71.1108917","seasonal_status":"Year Round","municipality":"Boston","total_docks":"15","station_id":"159"},{"number":"E32009","name":"Shawmut T Stop","lat":"42.292917","long":"-71.06575","seasonal_status":"Year Round","municipality":"Boston","total_docks":"19","station_id":"272"},{"number":"E32010","name":"Forest Hills","lat":"42.300923","long":"-71.114249","seasonal_status":"Year Round","municipality":"Boston","total_docks":"40","station_id":"273"},{"number":"E32011","name":"The Dimock Center","lat":"42.31930943","long":"-71.09639924","seasonal_status":"Year Round","municipality":"Boston","total_docks":"16","station_id":"425"},{"number":"E32012","name":"Martha Eliot Health Center","lat":"42.324173","long":"-71.10196","seasonal_status":"Year Round","municipality":"Boston","total_docks":"16","station_id":"488"},{"number":"B32062","name":"Forsyth St at Huntington Ave","lat":"42.339202","long":"-71.090511","seasonal_status":"Year Round","municipality":"Boston","total_docks":"15","station_id":"554"},{"number":"E32013","name":"Hyde Park Library","lat":"42.2568376","long":"-71.122509","seasonal_status":"Year Round","municipality":"Boston","total_docks":"15","station_id":"555"},{"number":"E32014","name":"Ross Playground","lat":"42.2645666","long":"-71.1145523","seasonal_status":"Year Round","municipality":"Boston","total_docks":"19","station_id":"556"},{"number":"B32063","name":"St. Alphonsus St at Tremont St","lat":"42.33329255","long":"-71.10124648","seasonal_status":"Year Round","municipality":"Boston","total_docks":"18","station_id":"558"},{"number":"B32064","name":"Flat 9 at Whittier","lat":"42.33420351","long":"-71.08767617","seasonal_status":"Year Round","municipality":"Boston","total_docks":"15","station_id":"560"},{"number":"C32107","name":"Pier 4 Blvd at Autumn Ln","lat":"42.3502102","long":"-71.0446705","seasonal_status":"Year Round","municipality":"Boston","total_docks":"19","station_id":"561"},{"number":"D32059","name":"Shawmut Ave at Lenox St","lat":"42.33584613","long":"-71.08038157","seasonal_status":"Year Round","municipality":"Boston","total_docks":"19","station_id":"568"},{"number":"D32060","name":"Hood Park","lat":"42.38004535","long":"-71.07304573","seasonal_status":"Year Round","municipality":"Boston","total_docks":"23","station_id":"569"},{"number":"A32056","name":"Riverway at Brookline Ave","lat":"42.33661006","long":"-71.1100468","seasonal_status":"Year Round","municipality":"Boston","total_docks":"25","station_id":"594"},{"number":"D32061","name":"Lenox St at Kendall St","lat":"42.33759485","long":"-71.08255059","seasonal_status":"Year Round","municipality":"Boston","total_docks":"17","station_id":"No ID pre-March 2023"},{"number":"A32032","name":"Bremen St at Marion St","lat":"42.37410622","long":"-71.03276253","seasonal_status":"Year Round","municipality":"Boston","total_docks":"11","station_id":"214"},{"number":"A32057","name":"Lewis Mall Wharf","lat":"42.36567871","long":"-71.04030132","seasonal_status":"Year Round","municipality":"Boston","total_docks":"21","station_id":"No ID pre-March 2023"},{"number":"C32108","name":"Beach St at Freeport St","lat":"42.30367409","long":"-71.05425954","seasonal_status":"Year Round","municipality":"Boston","total_docks":"19","station_id":"No ID pre-March 2023"},{"number":"C32110","name":"Talbot Ave T Station","lat":"42.29225148","long":"-71.07797205","seasonal_status":"Year Round","municipality":"Boston","total_docks":"19","station_id":"No ID pre-March 2023"},{"number":"C23109","name":"Cedar Grove T Stop","lat":"42.2796076","long":"-71.0602212","seasonal_status":"Year Round","municipality":"Boston","total_docks":"18","station_id":"No ID pre-March 2023"},{"number":"C32111","name":"Four Corners/Geneva T Stop","lat":"42.30321535","long":"-71.07820988","seasonal_status":"Year Round","municipality":"Boston","total_docks":"15","station_id":"No ID pre-March 2023"},{"number":"Z32999","name":"Cummins Highway at Blue Hill Ave T Stop","lat":"42.26998847","long":"-71.09746183","seasonal_status":"Year Round","municipality":"Boston","total_docks":"14","station_id":"No ID pre-March 2023"},{"number":"Z32997","name":"Parker St at Huntington Ave","lat":"42.33848849","long":"-71.09261138","seasonal_status":"Year Round","municipality":"Boston","total_docks":"19","station_id":"No ID pre-March 2023"},{"number":"C32112","name":"Meaney Playground - Pleasant St at E Cottage St","lat":"42.31870275","long":"-71.05889978","seasonal_status":"Year Round","municipality":"Boston","total_docks":"17","station_id":"No ID pre-March 2023"},{"number":"C32113","name":"Hancock St at Pleasant St","lat":"42.30981925","long":"-71.06019938","seasonal_status":"Year Round","municipality":"Boston","total_docks":"19","station_id":"No ID pre-March 2023"},{"number":"E32015","name":"Lincoln St at Empire St","lat":"42.357651","long":"-71.128513","seasonal_status":"Year Round","municipality":"Boston","total_docks":"19","station_id":"No ID pre-March 2023"},{"number":"E32016","name":"Commonwealth Ave at Naples Rd","lat":"42.351911","long":"-71.123798","seasonal_status":"Year Round","municipality":"Boston","total_docks":"19","station_id":"No ID pre-March 2023"},{"number":"E32017","name":"Butler T Stop","lat":"42.272548","long":"-71.062882","seasonal_status":"Year Round","municipality":"Boston","total_docks":"15","station_id":"No ID pre-March 2023"},{"number":"A32058","name":"Tremont St at Court St","lat":"42.359322","long":"-71.059624","seasonal_status":"Year Round","municipality":"Boston","total_docks":"23","station_id":"No ID pre-March 2023"},{"number":"D32004","name":"Arch St at Franklin St","lat":"42.35533502","long":"-71.05822917","seasonal_status":"Winter Storage","municipality":"Boston","total_docks":"31","station_id":"35"},{"number":"D32047","name":"Clarendon St at Newbury St","lat":"42.35159662","long":"-71.07561663","seasonal_status":"Winter Storage","municipality":"Boston","total_docks":"19","station_id":"384"},{"number":"E32008","name":"Centre St at Seaverns Ave","lat":"42.3121203","long":"-71.1142981","seasonal_status":"Winter Storage","municipality":"Boston","total_docks":"15","station_id":"357"},{"number":"D32058","name":"Brighton Ave at Linden St","lat":"42.3528376","long":"-71.1296752","seasonal_status":"Winter Storage","municipality":"Boston","total_docks":"19","station_id":"567"},{"number":"A32047","name":"Broad St at Central St","lat":"42.35849449","long":"-71.0542647","seasonal_status":"Winter Storage","municipality":"Boston","total_docks":"15","station_id":"460"},{"number":"C32101","name":"American Legion Hwy at Hyde Park Ave","lat":"42.27265394","long":"-71.11990392","seasonal_status":"Winter Storage","municipality":"Boston","total_docks":"19","station_id":"543"},{"number":"D32012","name":"Post Office Square","lat":"42.35585436","long":"-71.05459746","seasonal_status":"Winter Storage","municipality":"Boston","total_docks":"19","station_id":"48"},{"number":"B32012","name":"Northeastern University - North Parking Lot","lat":"42.341814","long":"-71.090179","seasonal_status":"Winter Storage","municipality":"Boston","total_docks":"15","station_id":"5"},{"number":"B32016","name":"Beacon St at Massachusetts Ave","lat":"42.35082681","long":"-71.08981088","seasonal_status":"Winter Storage","municipality":"Boston","total_docks":"19","station_id":"53"},{"number":"C32083","name":"Washington St at Walsh Playground","lat":"42.2771947","long":"-71.06955614","seasonal_status":"Winter Storage","municipality":"Boston","total_docks":"19","station_id":"430"},{"number":"C32084","name":"Washington St at Fuller St","lat":"42.28198628","long":"-71.07147925","seasonal_status":"Winter Storage","municipality":"Boston","total_docks":"15","station_id":"431"},{"number":"C32088","name":"Central Ave at River St","lat":"42.27094707","long":"-71.07337901","seasonal_status":"Winter Storage","municipality":"Boston","total_docks":"15","station_id":"435"},{"number":"C32081","name":"Washington St at Denton Terr","lat":"42.28072815","long":"-71.13423757","seasonal_status":"Winter Storage","municipality":"Boston","total_docks":"19","station_id":"427"},{"number":"C32095","name":"Bellevue T Stop","lat":"42.28611421","long":"-71.14636928","seasonal_status":"Winter Storage","municipality":"Boston","total_docks":"19","station_id":"511"},{"number":"C32096","name":"Knoll St at Centre St","lat":"42.29376656","long":"-71.1365658","seasonal_status":"Winter Storage","municipality":"Boston","total_docks":"19","station_id":"512"},{"number":"C32078","name":"Northbourne Rd at Hyde Park Ave","lat":"42.29118035","long":"-71.11773666","seasonal_status":"Winter Storage","municipality":"Boston","total_docks":"19","station_id":"421"},{"number":"C32080","name":"Mt. Hope St at Hyde Park Ave","lat":"42.28484472","long":"-71.11874517","seasonal_status":"Winter Storage","municipality":"Boston","total_docks":"19","station_id":"423"},{"number":"C32100","name":"Hyde Park Ave at Arlington St","lat":"42.26286746","long":"-71.12163126","seasonal_status":"Winter Storage","municipality":"Boston","total_docks":"19","station_id":"542"},{"number":"C32012","name":"Andrew T Stop - Dorchester Ave at Dexter St","lat":"42.33073333","long":"-71.05699851","seasonal_status":"Winter Storage","municipality":"Boston","total_docks":"15","station_id":"113"},{"number":"C32067","name":"Washington St at Peters Park","lat":"42.3438524","long":"-71.06764555","seasonal_status":"Winter Storage","municipality":"Boston","total_docks":"19","station_id":"412"},{"number":"C32010","name":"Congress St at Sleeper St","lat":"42.3510045","long":"-71.04930013","seasonal_status":"Winter Storage","municipality":"Boston","total_docks":"19","station_id":"64"},{"number":"C32058","name":"Ring Rd","lat":"42.34827839","long":"-71.08044855","seasonal_status":"Year Round - Currently Stored","municipality":"Boston","total_docks":"15","station_id":"352"},{"number":"A32029","name":"Piers Park","lat":"42.3650112","long":"-71.03528559","seasonal_status":"Winter Storage","municipality":"Boston","total_docks":"15","station_id":"211"},{"number":"A32055","name":"Airport T Stop - Bremen St at Brooks St","lat":"42.37535377","long":"-71.03131771","seasonal_status":"Winter Storage","municipality":"Boston","total_docks":"15","station_id":"214"},{"number":"A32034","name":"Glendon St at Condor St","lat":"42.38240378","long":"-71.03024304","seasonal_status":"Winter Storage","municipality":"Boston","total_docks":"19","station_id":"216"},{"number":"A32037","name":"Washington St at Egremont Rd","lat":"42.34286835","long":"-71.14127841","seasonal_status":"Winter Storage","municipality":"Boston","total_docks":"15","station_id":"354"},{"number":"A32043","name":"Western Ave at Richardson St","lat":"42.36178741","long":"-71.14393111","seasonal_status":"Winter Storage","municipality":"Boston","total_docks":"19","station_id":"428"},{"number":"A32048","name":"Marion St at White St","lat":"42.38066931","long":"-71.03907316","seasonal_status":"Winter Storage","municipality":"Boston","total_docks":"19","station_id":"477"},{"number":"B32000","name":"Newbury St at Hereford St","lat":"42.348717","long":"-71.085954","seasonal_status":"Winter Storage","municipality":"Boston","total_docks":"23","station_id":"52"},{"number":"B32025","name":"Uphams Corner T Stop - Magnolia St at Dudley St","lat":"42.31869734","long":"-71.06978148","seasonal_status":"Winter Storage","municipality":"Boston","total_docks":"15","station_id":"199"},{"number":"B32030","name":"Walnut Ave at Warren St","lat":"42.324081","long":"-71.083235","seasonal_status":"Winter Storage","municipality":"Boston","total_docks":"15","station_id":"204"},{"number":"B32057","name":"Blue Hill Ave at Southwood St","lat":"42.31786021","long":"-71.07798629","seasonal_status":"Winter Storage","municipality":"Boston","total_docks":"15","station_id":"368"},{"number":"C23045","name":"Morton St T","lat":"42.28072514","long":"-71.08617242","seasonal_status":"Winter Storage","municipality":"Boston","total_docks":"15","station_id":"343"},{"number":"C32002","name":"Boston Medical Center - E Concord St at Harrison Ave","lat":"42.33639915","long":"-71.07306711","seasonal_status":"Winter Storage","municipality":"Boston","total_docks":"19","station_id":"13"},{"number":"C32018","name":"E Cottage St at Columbia Rd","lat":"42.320561","long":"-71.06198","seasonal_status":"Winter Storage","municipality":"Boston","total_docks":"19","station_id":"128"},{"number":"C32019","name":"Uphams Corner","lat":"42.31727474","long":"-71.06537004","seasonal_status":"Winter Storage","municipality":"Boston","total_docks":"15","station_id":"130"},{"number":"C32031","name":"Ryan Playground - Dorchester Ave at Harbor View St","lat":"42.317642","long":"-71.056664","seasonal_status":"Winter Storage","municipality":"Boston","total_docks":"15","station_id":"167"},{"number":"C32039","name":"Park St at Norwell St","lat":"42.29442579","long":"-71.07821761","seasonal_status":"Winter Storage","municipality":"Boston","total_docks":"15","station_id":"255"},{"number":"C32042","name":"Washington St at Bowdoin St","lat":"42.29916498","long":"-71.07345872","seasonal_status":"Winter Storage","municipality":"Boston","total_docks":"15","station_id":"259"},{"number":"C32049","name":"Thetford Ave at Norfolk St","lat":"42.28621295","long":"-71.07942931","seasonal_status":"Winter Storage","municipality":"Boston","total_docks":"15","station_id":"347"},{"number":"C32065","name":"Adams St at Lonsdale St","lat":"42.29167943","long":"-71.05726346","seasonal_status":"Winter Storage","municipality":"Boston","total_docks":"15","station_id":"410"},{"number":"D32026","name":"Hayes Square - Vine St at Moulton St","lat":"42.377022","long":"-71.056605","seasonal_status":"Winter Storage","municipality":"Boston","total_docks":"19","station_id":"129"},{"number":"D32050","name":"Blossom St at Charles St","lat":"42.36435589","long":"-71.06959369","seasonal_status":"Winter Storage","municipality":"Boston","total_docks":"15","station_id":"416"},{"number":"A32054","name":"Addison St at Saratoga St","lat":"42.38518147","long":"-71.0151367","seasonal_status":"Winter Storage","municipality":"Boston","total_docks":"19","station_id":"563"},{"number":"C32015","name":"Dudley Town Common - Mt Pleasant Ave at Blue Hill Ave","lat":"42.325333","long":"-71.075354","seasonal_status":"Year Round - Currently Stored","municipality":"Boston","total_docks":"15","station_id":"106"},{"number":"A32046","name":"Canal St at Causeway St","lat":"42.365301","long":"-71.060922","seasonal_status":"Winter Storage","municipality":"Boston","total_docks":"23","station_id":"459"},{"number":"K32001","name":"Coolidge Corner - Beacon St at Centre St","lat":"42.341598","long":"-71.123338","seasonal_status":"Year Round","municipality":"Brookline","total_docks":"19","station_id":"69"},{"number":"K32002","name":"Beacon St at Tappan St","lat":"42.3382668","long":"-71.13894682","seasonal_status":"Year Round","municipality":"Brookline","total_docks":"15","station_id":"82"},{"number":"K32003","name":"Brookline Village - Station Street at MBTA","lat":"42.33274392","long":"-71.11626681","seasonal_status":"Year Round","municipality":"Brookline","total_docks":"19","station_id":"86"},{"number":"K32004","name":"JFK Crossing at Harvard St. / Thorndike St.","lat":"42.34655124","long":"-71.12833211","seasonal_status":"Year Round","municipality":"Brookline","total_docks":"15","station_id":"103"},{"number":"K32005","name":"Brookline Town Hall","lat":"42.33376473","long":"-71.12046447","seasonal_status":"Year Round","municipality":"Brookline","total_docks":"15","station_id":"193"},{"number":"K32006","name":"Commonwealth Ave At Babcock St","lat":"42.35154735","long":"-71.12126246","seasonal_status":"Year Round","municipality":"Brookline","total_docks":"15","station_id":"226"},{"number":"K32007","name":"St Mary's","lat":"42.34619708","long":"-71.10728681","seasonal_status":"Year Round","municipality":"Brookline","total_docks":"15","station_id":"233"},{"number":"K32008","name":"Tappan St at Brookline Hills MBTA","lat":"42.33137017","long":"-71.12688361","seasonal_status":"Year Round","municipality":"Brookline","total_docks":"15","station_id":"191"},{"number":"K32009","name":"Cypress St at Clark Playground","lat":"42.32784317","long":"-71.12536222","seasonal_status":"Year Round","municipality":"Brookline","total_docks":"15","station_id":"187"},{"number":"K32010","name":"High St at Cypress St","lat":"42.32464511","long":"-71.12135231","seasonal_status":"Year Round","municipality":"Brookline","total_docks":"15","station_id":"401"},{"number":"K32012","name":"Marion St at Harvard St","lat":"42.34012243","long":"-71.12070564","seasonal_status":"Year Round","municipality":"Brookline","total_docks":"15","station_id":"403"},{"number":"K32011","name":"Washington Sq","lat":"42.33985827","long":"-71.13421171","seasonal_status":"Year Round","municipality":"Brookline","total_docks":"15","station_id":"402"},{"number":"K32015","name":"1200 Beacon St","lat":"42.34414899","long":"-71.11467361","seasonal_status":"Year Round","municipality":"Brookline","total_docks":"15","station_id":"452"},{"number":"K32017","name":"Harvard St and Stedman St","lat":"42.34435176","long":"-71.12490356","seasonal_status":"Year Round","municipality":"Brookline","total_docks":"15","station_id":"531"},{"number":"M32002","name":"One Kendall Square at Hampshire St / Portland St","lat":"42.366277","long":"-71.09169","seasonal_status":"Year Round","municipality":"Cambridge","total_docks":"19","station_id":"91"},{"number":"M32003","name":"One Broadway / Kendall Sq at Main St / 3rd St","lat":"42.36224179","long":"-71.08311072","seasonal_status":"Year Round","municipality":"Cambridge","total_docks":"23","station_id":"72"},{"number":"M32004","name":"Kendall T","lat":"42.36242784","long":"-71.08495474","seasonal_status":"Year Round","municipality":"Cambridge","total_docks":"23","station_id":"189"},{"number":"M32005","name":"MIT Stata Center at Vassar St / Main St","lat":"42.36213123","long":"-71.09115601","seasonal_status":"Year Round","municipality":"Cambridge","total_docks":"35","station_id":"80"},{"number":"M32006","name":"MIT at Mass Ave / Amherst St","lat":"42.3581","long":"-71.093198","seasonal_status":"Year Round","municipality":"Cambridge","total_docks":"27","station_id":"67"},{"number":"M32007","name":"Cambridge St - at Columbia St / Webster Ave","lat":"42.372969","long":"-71.094445","seasonal_status":"Year Round","municipality":"Cambridge","total_docks":"15","station_id":"95"},{"number":"M32009","name":"Lafayette Square at Mass Ave / Main St / Columbia St","lat":"42.36346469","long":"-71.10057324","seasonal_status":"Year Round","municipality":"Cambridge","total_docks":"15","station_id":"75"},{"number":"M32011","name":"Central Square at Mass Ave / Essex St","lat":"42.36507","long":"-71.1031","seasonal_status":"Year Round","municipality":"Cambridge","total_docks":"19","station_id":"68"},{"number":"M32012","name":"Central Sq Post Office / Cambridge City Hall at Mass Ave / Pleasant St","lat":"42.366426","long":"-71.105495","seasonal_status":"Year Round","municipality":"Cambridge","total_docks":"17","station_id":"76"},{"number":"M32013","name":"Cambridge Main Library at Broadway / Trowbridge St","lat":"42.373379","long":"-71.111075","seasonal_status":"Year Round","municipality":"Cambridge","total_docks":"19","station_id":"96"},{"number":"M32014","name":"Harvard University Housing - 115 Putnam Ave at Peabody Terrace","lat":"42.366621","long":"-71.114214","seasonal_status":"Year Round","municipality":"Cambridge","total_docks":"15","station_id":"87"},{"number":"M32016","name":"Harvard Kennedy School at Bennett St / Eliot St","lat":"42.3722168","long":"-71.12188071","seasonal_status":"Year Round","municipality":"Cambridge","total_docks":"23","station_id":"70"},{"number":"M32017","name":"Harvard Square at Brattle St / Eliot St","lat":"42.3733288","long":"-71.12098601","seasonal_status":"Year Round","municipality":"Cambridge","total_docks":"15","station_id":"73"},{"number":"M32018","name":"Harvard Square at Mass Ave/ Dunster","lat":"42.373268","long":"-71.118579","seasonal_status":"Year Round","municipality":"Cambridge","total_docks":"19","station_id":"74"},{"number":"M32019","name":"CambridgeSide Galleria - CambridgeSide PL at Land Blvd","lat":"42.36707407","long":"-71.07679278","seasonal_status":"Year Round","municipality":"Cambridge","total_docks":"15","station_id":"84"},{"number":"M32020","name":"Harvard Law School at Mass Ave / Jarvis St","lat":"42.379011","long":"-71.119945","seasonal_status":"Year Round","municipality":"Cambridge","total_docks":"19","station_id":"89"},{"number":"M32021","name":"Harvard University Gund Hall at Quincy St / Kirkland St","lat":"42.376369","long":"-71.114025","seasonal_status":"Year Round","municipality":"Cambridge","total_docks":"15","station_id":"110"},{"number":"M32022","name":"Lower Cambridgeport at Magazine St / Riverside Rd","lat":"42.3572185","long":"-71.11387163","seasonal_status":"Year Round","municipality":"Cambridge","total_docks":"19","station_id":"105"},{"number":"M32023","name":"Harvard University / SEAS Cruft-Pierce Halls at 29 Oxford St","lat":"42.377945","long":"-71.116865","seasonal_status":"Year Round","municipality":"Cambridge","total_docks":"17","station_id":"108"},{"number":"M32024","name":"Harvard University Radcliffe Quadrangle at Shepard St / Garden St","lat":"42.380287","long":"-71.125107","seasonal_status":"Year Round","municipality":"Cambridge","total_docks":"19","station_id":"104"},{"number":"M32025","name":"Linear Park - Mass. Ave at Cameron Ave","lat":"42.397828","long":"-71.130516","seasonal_status":"Year Round","municipality":"Cambridge","total_docks":"19","station_id":""},{"number":"M32026","name":"359 Broadway - Broadway at Fayette Street","lat":"42.370803","long":"-71.104412","seasonal_status":"Year Round","municipality":"Cambridge","total_docks":"23","station_id":"116"},{"number":"M32027","name":"Binney St / Sixth St","lat":"42.36608797","long":"-71.08633604","seasonal_status":"Year Round","municipality":"Cambridge","total_docks":"19","station_id":"117"},{"number":"M32029","name":"Porter Square Station","lat":"42.387995","long":"-71.119084","seasonal_status":"Year Round","municipality":"Cambridge","total_docks":"19","station_id":"115"},{"number":"M32030","name":"Dana Park","lat":"42.36178044","long":"-71.10809952","seasonal_status":"Year Round","municipality":"Cambridge","total_docks":"19","station_id":"139"},{"number":"M32031","name":"Danehy Park","lat":"42.388966","long":"-71.132788","seasonal_status":"Year Round","municipality":"Cambridge","total_docks":"17","station_id":"140"},{"number":"M32032","name":"Kendall Street","lat":"42.36356016","long":"-71.08216792","seasonal_status":"Year Round","municipality":"Cambridge","total_docks":"17","station_id":"141"},{"number":"M32033","name":"Alewife Station at Russell Field","lat":"42.396105","long":"-71.139459","seasonal_status":"Year Round","municipality":"Cambridge","total_docks":"23","station_id":"142"},{"number":"M32034","name":"EF - North Point Park","lat":"42.369885","long":"-71.069957","seasonal_status":"Year Round","municipality":"Cambridge","total_docks":"23","station_id":"143"},{"number":"M32035","name":"Rogers St & Land Blvd","lat":"42.36644674","long":"-71.07654601","seasonal_status":"Year Round","municipality":"Cambridge","total_docks":"19","station_id":"144"},{"number":"M32036","name":"Rindge Avenue - O'Neill Library","lat":"42.392766","long":"-71.129042","seasonal_status":"Year Round","municipality":"Cambridge","total_docks":"19","station_id":"145"},{"number":"M32037","name":"Ames St at Main St","lat":"42.3625","long":"-71.08822","seasonal_status":"Year Round","municipality":"Cambridge","total_docks":"19","station_id":"107"},{"number":"M32038","name":"Harvard University River Houses at DeWolfe St / Cowperthwaite St","lat":"42.36923907","long":"-71.11687034","seasonal_status":"Year Round","municipality":"Cambridge","total_docks":"21","station_id":"97"},{"number":"M32039","name":"Lesley University","lat":"42.38674802","long":"-71.11901879","seasonal_status":"Year Round","municipality":"Cambridge","total_docks":"15","station_id":"176"},{"number":"M32040","name":"University Park","lat":"42.36264779","long":"-71.10006094","seasonal_status":"Year Round","municipality":"Cambridge","total_docks":"19","station_id":"177"},{"number":"M32041","name":"MIT Pacific St at Purrington St","lat":"42.3595732","long":"-71.10129476","seasonal_status":"Year Round","municipality":"Cambridge","total_docks":"19","station_id":"178"},{"number":"M32042","name":"MIT Vassar St","lat":"42.35560121","long":"-71.10394478","seasonal_status":"Year Round","municipality":"Cambridge","total_docks":"53","station_id":"179"},{"number":"M32043","name":"Mt Auburn","lat":"42.37478629","long":"-71.13320231","seasonal_status":"Year Round","municipality":"Cambridge","total_docks":"19","station_id":"180"},{"number":"M32044","name":"Huron Ave At Vassal Lane","lat":"42.38165061","long":"-71.13426981","seasonal_status":"Year Round","municipality":"Cambridge","total_docks":"19","station_id":"181"},{"number":"M32045","name":"Museum of Science","lat":"42.36769018","long":"-71.07116282","seasonal_status":"Year Round","municipality":"Cambridge","total_docks":"19","station_id":"182"},{"number":"M32046","name":"Alewife MBTA at Steel Place","lat":"42.39558846","long":"-71.14260614","seasonal_status":"Year Round","municipality":"Cambridge","total_docks":"19","station_id":"183"},{"number":"M32047","name":"Sidney Research Campus/Erie Street at Waverly","lat":"42.35775309","long":"-71.10393405","seasonal_status":"Year Round","municipality":"Cambridge","total_docks":"19","station_id":"184"},{"number":"M32048","name":"Third at Binney","lat":"42.36544486","long":"-71.08277142","seasonal_status":"Year Round","municipality":"Cambridge","total_docks":"15","station_id":"185"},{"number":"M32049","name":"Child Street at Brian P. Murphy Staircase","lat":"42.37197678","long":"-71.07200496","seasonal_status":"Year Round","municipality":"Cambridge","total_docks":"23","station_id":"195"},{"number":"M32050","name":"Verizon Innovation Hub 10 Ware Street","lat":"42.37250865","long":"-71.11305356","seasonal_status":"Year Round","municipality":"Cambridge","total_docks":"19","station_id":"221"},{"number":"M32051","name":"Fresh Pond Reservation","lat":"42.38267828","long":"-71.14347895","seasonal_status":"Year Round","municipality":"Cambridge","total_docks":"17","station_id":"224"},{"number":"M32052","name":"Cambridge Dept. of Public Works -147 Hampshire St.","lat":"42.37119728","long":"-71.09759867","seasonal_status":"Year Round","municipality":"Cambridge","total_docks":"19","station_id":"225"},{"number":"M32053","name":"One Memorial Drive","lat":"42.36161932","long":"-71.08043551","seasonal_status":"Year Round","municipality":"Cambridge","total_docks":"19","station_id":"228"},{"number":"M32054","name":"699 Mt Auburn St","lat":"42.37500235","long":"-71.14871614","seasonal_status":"Year Round","municipality":"Cambridge","total_docks":"25","station_id":"333"},{"number":"M32055","name":"Harvard St at Greene-Rose Heritage Park","lat":"42.36599433","long":"-71.09522222","seasonal_status":"Year Round","municipality":"Cambridge","total_docks":"19","station_id":"335"},{"number":"M32056","name":"Mass Ave at Hadley/Walden","lat":"42.39120972","long":"-71.12260755","seasonal_status":"Year Round","municipality":"Cambridge","total_docks":"19","station_id":"334"},{"number":"M32057","name":"Vassal Lane at Tobin/VLUS","lat":"42.38536765","long":"-71.13775671","seasonal_status":"Year Round","municipality":"Cambridge","total_docks":"19","station_id":"367"},{"number":"M32058","name":"84 Cambridgepark Dr","lat":"42.3936","long":"-71.143941","seasonal_status":"Year Round","municipality":"Cambridge","total_docks":"27","station_id":"319"},{"number":"M32059","name":"Ames St at Broadway","lat":"42.3636929","long":"-71.0875672","seasonal_status":"Year Round","municipality":"Cambridge","total_docks":"19","station_id":"318"},{"number":"M32060","name":"700 Huron Ave","lat":"42.38078817","long":"-71.15412891","seasonal_status":"Year Round","municipality":"Cambridge","total_docks":"19","station_id":"371"},{"number":"M32061","name":"Mass Ave at Albany St","lat":"42.36135838","long":"-71.09670274","seasonal_status":"Year Round","municipality":"Cambridge","total_docks":"18","station_id":"380"},{"number":"M32062","name":"Inman Square at Springfield St.","lat":"42.37426714","long":"-71.10026479","seasonal_status":"Year Round","municipality":"Cambridge","total_docks":"25","station_id":"381"},{"number":"M32063","name":"Sennott Park Broadway at Norfolk Street","lat":"42.36860524","long":"-71.09930186","seasonal_status":"Year Round","municipality":"Cambridge","total_docks":"19","station_id":"386"},{"number":"M32064","name":"75 Binney St","lat":"42.36550729","long":"-71.0801376","seasonal_status":"Year Round","municipality":"Cambridge","total_docks":"19","station_id":"398"},{"number":"M32065","name":"Kennedy-Longfellow School 158 Spring St","lat":"42.36955298","long":"-71.08579015","seasonal_status":"Year Round","municipality":"Cambridge","total_docks":"19","station_id":"413"},{"number":"M32066","name":"Discovery Park - 30 Acorn Park Drive","lat":"42.39790817","long":"-71.14797131","seasonal_status":"Year Round","municipality":"Cambridge","total_docks":"23","station_id":"414"},{"number":"M32067","name":"Berkshire Street at Cambridge Street","lat":"42.37207658","long":"-71.08995434","seasonal_status":"Year Round","municipality":"Cambridge","total_docks":"19","station_id":"437"},{"number":"M32068","name":"Graham and Parks School  Linnaean St at Walker St","lat":"42.3829443","long":"-71.12449831","seasonal_status":"Year Round","municipality":"Cambridge","total_docks":"19","station_id":"456"},{"number":"M32069","name":"Smith Pl at Wilson Rd","lat":"42.39239749","long":"-71.15058332","seasonal_status":"Year Round","municipality":"Cambridge","total_docks":"19","station_id":"463"},{"number":"M32070","name":"MIT Carleton St at Amherst St","lat":"42.36054174","long":"-71.08669817","seasonal_status":"Year Round","municipality":"Cambridge","total_docks":"27","station_id":"471"},{"number":"M32071","name":"MIT Hayward St at Amherst St","lat":"42.36085937","long":"-71.08551858","seasonal_status":"Year Round","municipality":"Cambridge","total_docks":"27","station_id":"472"},{"number":"M32072","name":"Galileo Galilei Way at Main Street","lat":"42.36300378","long":"-71.08974038","seasonal_status":"Year Round","municipality":"Cambridge","total_docks":"19","station_id":"479"},{"number":"M32073","name":"955 Mass Ave","lat":"42.36895181","long":"-71.1099878","seasonal_status":"Year Round","municipality":"Cambridge","total_docks":"19","station_id":"515"},{"number":"M32074","name":"Concord Ave at Spinelli Place","lat":"42.390719","long":"-71.1538877","seasonal_status":"Year Round","municipality":"Cambridge","total_docks":"19","station_id":"532"},{"number":"M32075","name":"Danehy Park at New Street","lat":"42.389456","long":"-71.139019","seasonal_status":"Year Round","municipality":"Cambridge","total_docks":"19","station_id":"533"},{"number":"M32076","name":"Old Morse Park at Putnam Ave","lat":"42.35766248","long":"-71.10841334","seasonal_status":"Year Round","municipality":"Cambridge","total_docks":"15","station_id":"544"},{"number":"M32077","name":"Cambridge Crossing at North First Street","lat":"42.371141","long":"-71.076198","seasonal_status":"Year Round","municipality":"Cambridge","total_docks":"23","station_id":"553"},{"number":"M32078","name":"Galileo Galilei Way at Fulkerson St/Binney St","lat":"42.3664204","long":"-71.0885418","seasonal_status":"Year Round","municipality":"Cambridge","total_docks":"19","station_id":"557"},{"number":"M32079","name":"Raymond Park at Walden St","lat":"42.38736954","long":"-71.12761001","seasonal_status":"Year Round","municipality":"Cambridge","total_docks":"19","station_id":"564"},{"number":"M32080","name":"Main Street/Albany Street/Technology Square","lat":"42.3629016","long":"-71.0915669","seasonal_status":"Year Round","municipality":"Cambridge","total_docks":"23","station_id":"566"},{"number":"M32081","name":"Gore Street at Lambert Street","lat":"42.3730798","long":"-71.08634234","seasonal_status":"Year Round","municipality":"Cambridge","total_docks":"19","station_id":"582"},{"number":"M32082","name":"Broad Canal Way at Third Street","lat":"42.3630455","long":"-71.08287079","seasonal_status":"Year Round","municipality":"Cambridge","total_docks":"19","station_id":"583"},{"number":"M32083","name":"John Ahern Field at Kennedy-Longfellow School","lat":"42.36903567","long":"-71.0863096","seasonal_status":"Year Round","municipality":"Cambridge","total_docks":"19","station_id":"590"},{"number":"M32084","name":"87-101 Cambridgepark Drive","lat":"42.39522187","long":"-71.14421904","seasonal_status":"Year Round","municipality":"Cambridge","total_docks":"23","station_id":"No ID pre-March 2023"},{"number":"M32085","name":"Mass Ave/Lafayette Square","lat":"42.36356499","long":"-71.10044184","seasonal_status":"Year Round","municipality":"Cambridge","total_docks":"15","station_id":"No ID pre-March 2023"},{"number":"M32086","name":"Morgan Ave at North First St","lat":"42.37197726","long":"-71.07585847","seasonal_status":"Year Round","municipality":"Cambridge","total_docks":"23","station_id":"No ID pre-March 2023"},{"number":"M32087","name":"Church St","lat":"42.37433925","long":"-71.11966431","seasonal_status":"Year Round","municipality":"Cambridge","total_docks":"15","station_id":"No ID pre-March 2023"},{"number":"M32088","name":"55 Wheeler Street","lat":"42.390821","long":"-71.143946","seasonal_status":"Year Round","municipality":"Cambridge","total_docks":"23","station_id":"No ID pre-March 2023"},{"number":"Z32998","name":"Broadway at Kittie Knox Bike Path","lat":"42.36412659","long":"-71.08738632","seasonal_status":"Year Round","municipality":"Cambridge","total_docks":"23","station_id":"No ID pre-March 2023"},{"number":"M32089","name":"Moore Youth Center","lat":"42.363539","long":"-71.111698","seasonal_status":"Year Round","municipality":"Cambridge","total_docks":"15","station_id":"No ID pre-March 2023"},{"number":"M32090","name":"O'Brien Highway at First Street","lat":"42.370982","long":"-71.076638","seasonal_status":"Year Round","municipality":"Cambridge","total_docks":"19","station_id":"No ID pre-March 2023"},{"number":"M32091","name":"325 Binney St.","lat":"42.36722","long":"-71.08903","seasonal_status":"Year Round","municipality":"Cambridge","total_docks":"19","station_id":"No ID pre-March 2023"},{"number":"M32001","name":"Lechmere Station at Cambridge St / First St","lat":"42.370677","long":"-71.076529","seasonal_status":"Year Round - Currently Stored","municipality":"Cambridge","total_docks":"19","station_id":""},{"number":"H32001","name":"Cary Square","lat":"42.39813565","long":"-71.03070972","seasonal_status":"Year Round","municipality":"Chelsea","total_docks":"12","station_id":"503"},{"number":"H32002","name":"Bellingham Square","lat":"42.39319611","long":"-71.0334456","seasonal_status":"Year Round","municipality":"Chelsea","total_docks":"11","station_id":"504"},{"number":"H32003","name":"Chelsea Square","lat":"42.39022671","long":"-71.03857018","seasonal_status":"Year Round","municipality":"Chelsea","total_docks":"11","station_id":"505"},{"number":"H32004","name":"Broadway at Gerrish Ave","lat":"42.39453079","long":"-71.03085594","seasonal_status":"Year Round","municipality":"Chelsea","total_docks":"11","station_id":"506"},{"number":"H32005","name":"Chelsea Station","lat":"42.39636528","long":"-71.03987179","seasonal_status":"Year Round","municipality":"Chelsea","total_docks":"11","station_id":"507"},{"number":"H32006","name":"855 Broadway","lat":"42.39841773","long":"-71.02390923","seasonal_status":"Year Round","municipality":"Chelsea","total_docks":"11","station_id":"508"},{"number":"V32001","name":"7 Acre Park","lat":"42.41143223","long":"-71.06823265","seasonal_status":"Year Round","municipality":"Everett","total_docks":"15","station_id":"387"},{"number":"V32003","name":"Everett Square (Broadway at Chelsea St)","lat":"42.406872","long":"-71.055786","seasonal_status":"Year Round","municipality":"Everett","total_docks":"16","station_id":"389"},{"number":"V32004","name":"Broadway at Lynde St","lat":"42.39648358","long":"-71.0654676","seasonal_status":"Year Round","municipality":"Everett","total_docks":"15","station_id":"390"},{"number":"V32005","name":"Encore","lat":"42.39329263","long":"-71.0724476","seasonal_status":"Year Round","municipality":"Everett","total_docks":"15","station_id":"391"},{"number":"V32006","name":"Glendale Square (Ferry St at Broadway)","lat":"42.41427294","long":"-71.04479656","seasonal_status":"Year Round","municipality":"Everett","total_docks":"15","station_id":"392"},{"number":"V32007","name":"Swan St. Park","lat":"42.41250451","long":"-71.05842225","seasonal_status":"Year Round","municipality":"Everett","total_docks":"15","station_id":"393"},{"number":"V32008","name":"Broadway at Maple St","lat":"42.41034691","long":"-71.05260458","seasonal_status":"Year Round","municipality":"Everett","total_docks":"14","station_id":"394"},{"number":"V32011","name":"Broadway at Beacham St","lat":"42.3983606","long":"-71.06373843","seasonal_status":"Year Round","municipality":"Everett","total_docks":"15","station_id":"397"},{"number":"V32012","name":"Hale Park","lat":"42.4153271","long":"-71.0528183","seasonal_status":"Year Round","municipality":"Everett","total_docks":"11","station_id":"448"},{"number":"V32013","name":"Kearins Playground","lat":"42.40616124","long":"-71.06041655","seasonal_status":"Year Round","municipality":"Everett","total_docks":"11","station_id":"482"},{"number":"V32015","name":"Gramsdorf Playground","lat":"42.408156","long":"-71.0429","seasonal_status":"Year Round","municipality":"Everett","total_docks":"14","station_id":"586"},{"number":"V32016","name":"Chelsea St at Vine St","lat":"42.40336946","long":"-71.04731441","seasonal_status":"Year Round","municipality":"Everett","total_docks":"11","station_id":"395"},{"number":"V32009","name":"Pope John High School","lat":"42.4203487","long":"-71.04419768","seasonal_status":"Winter Storage","municipality":"Everett","total_docks":"15","station_id":"No ID pre-March 2023"},{"number":"G32001","name":"Malden Center T Station","lat":"42.426541","long":"-71.073179","seasonal_status":"Year Round","municipality":"Malden","total_docks":"11","station_id":"584"},{"number":"G32002","name":"Northern Strand at Main St","lat":"42.42386","long":"-71.067793","seasonal_status":"Year Round","municipality":"Malden","total_docks":"11","station_id":"585"},{"number":"G32003","name":"Malden High School","lat":"42.42653766","long":"-71.06393695","seasonal_status":"Year Round","municipality":"Malden","total_docks":"11","station_id":"587"},{"number":"V32014","name":"Wellington MBTA","lat":"42.4023682","long":"-71.07573182","seasonal_status":"Year Round","municipality":"Medford","total_docks":"19","station_id":"565"},{"number":"F32001","name":"Main St at Brooks Park","lat":"42.411709","long":"-71.110444","seasonal_status":"Year Round","municipality":"Medford","total_docks":"11","station_id":"576"},{"number":"F32002","name":"Medford Sq - Riverside Ave at River St","lat":"42.417724","long":"-71.108102","seasonal_status":"Year Round","municipality":"Medford","total_docks":"11","station_id":"577"},{"number":"F32003","name":"Tufts Sq - Main St at Medford St","lat":"42.401697","long":"-71.106128","seasonal_status":"Year Round","municipality":"Medford","total_docks":"11","station_id":"578"},{"number":"F32006","name":"Hormel Stadium","lat":"42.40721644","long":"-71.09651506","seasonal_status":"Year Round","municipality":"Medford","total_docks":"11","station_id":"No ID pre-March 2023"},{"number":"F32004","name":"Harris Park","lat":"42.41081837","long":"-71.08152866","seasonal_status":"Year Round","municipality":"Medford","total_docks":"11","station_id":"No ID pre-March 2023"},{"number":"F32005","name":"Haines Square","lat":"42.42333137","long":"-71.09124541","seasonal_status":"Year Round","municipality":"Medford","total_docks":"11","station_id":"No ID pre-March 2023"},{"number":"ZZ32996","name":"Auburn St. at Mystic River","lat":"42.4175909","long":"-71.12608128","seasonal_status":"Year Round","municipality":"Medford","total_docks":"11","station_id":"No ID pre-March 2023"},{"number":"F32007","name":"West Medford Square (Bower St at Harvard Ave)","lat":"42.420647","long":"-71.133483","seasonal_status":"Year Round","municipality":"Medford","total_docks":"11","station_id":"No ID pre-March 2023"},{"number":"F32008","name":"Logan Park","lat":"42.41800743","long":"-71.09657221","seasonal_status":"Year Round","municipality":"Medford","total_docks":"11","station_id":"No ID pre-March 2023"},{"number":"N32000","name":"Centre St at Washington St","lat":"42.35574335","long":"-71.18641943","seasonal_status":"Offline for Winter","municipality":"Newton","total_docks":"11","station_id":"466"},{"number":"N32001","name":"Washington St at Crafts St","lat":"42.35389024","long":"-71.19943707","seasonal_status":"Offline for Winter","municipality":"Newton","total_docks":"11","station_id":"467"},{"number":"N32002","name":"Nonantum Library","lat":"42.36068456","long":"-71.201462","seasonal_status":"Offline for Winter","municipality":"Newton","total_docks":"15","station_id":"468"},{"number":"N32003","name":"Bacon St at Washington St","lat":"42.35711921","long":"-71.18604537","seasonal_status":"Offline for Winter","municipality":"Newton","total_docks":"11","station_id":"469"},{"number":"N32005","name":"West Newton","lat":"42.3496005","long":"-71.22627497","seasonal_status":"Offline for Winter","municipality":"Newton","total_docks":"15","station_id":"473"},{"number":"N32008","name":"Langley Lot","lat":"42.330528","long":"-71.192861","seasonal_status":"Offline for Winter","municipality":"Newton","total_docks":"11","station_id":"486"},{"number":"N32009","name":"Boston College T","lat":"42.33987892","long":"-71.16708934","seasonal_status":"Year Round","municipality":"Newton","total_docks":"17","station_id":"523"},{"number":"N32010","name":"Newton Highlands T","lat":"42.32206566","long":"-71.20637298","seasonal_status":"Offline for Winter","municipality":"Newton","total_docks":"15","station_id":"524"},{"number":"N32011","name":"California at Chapel","lat":"42.36514871","long":"-71.20236039","seasonal_status":"Offline for Winter","municipality":"Newton","total_docks":"12","station_id":"525"},{"number":"N32012","name":"Beacon at Walnut","lat":"42.33006232","long":"-71.20668411","seasonal_status":"Offline for Winter","municipality":"Newton","total_docks":"15","station_id":"526"},{"number":"N32013","name":"Newton Library","lat":"42.33620337","long":"-71.20779455","seasonal_status":"Offline for Winter","municipality":"Newton","total_docks":"13","station_id":"527"},{"number":"N32014","name":"Washington St at Walnut St","lat":"42.35145812","long":"-71.20764971","seasonal_status":"Offline for Winter","municipality":"Newton","total_docks":"11","station_id":"528"},{"number":"N32015","name":"Auburndale","lat":"42.34805541","long":"-71.24775946","seasonal_status":"Offline for Winter","municipality":"Newton","total_docks":"15","station_id":"535"},{"number":"N32018","name":"Centre St at Commonwealth Ave","lat":"42.3362358","long":"-71.1934421","seasonal_status":"Offline for Winter","municipality":"Newton","total_docks":"11","station_id":"559"},{"number":"N32006","name":"Watertown St at Albemarle Rd","lat":"42.35410408","long":"-71.21382214","seasonal_status":"Offline for Winter","municipality":"Newton","total_docks":"11","station_id":"474"},{"number":"R32006","name":"Revere City Hall","lat":"42.40741","long":"-71.0139","seasonal_status":"Year Round","municipality":"Revere","total_docks":"11","station_id":"485"},{"number":"R32007","name":"Revere Public Library","lat":"42.408088","long":"-71.008942","seasonal_status":"Year Round","municipality":"Revere","total_docks":"11","station_id":"484"},{"number":"R32002","name":"Orr Sq (Shirley Ave)","lat":"42.40715656","long":"-70.9927243","seasonal_status":"Year Round","municipality":"Revere","total_docks":"11","station_id":"541"},{"number":"R32001","name":"Sumner St at Shirley Ave","lat":"42.40833706","long":"-70.99804848","seasonal_status":"Year Round","municipality":"Revere","total_docks":"11","station_id":"540"},{"number":"T32001","name":"Salem Ferry Landing","lat":"42.52189284","long":"-70.88069111","seasonal_status":"Offline for Winter","municipality":"Salem","total_docks":"11","station_id":"516"},{"number":"T32002","name":"Salem Willows Park","lat":"42.53466911","long":"-70.8702144","seasonal_status":"Offline for Winter","municipality":"Salem","total_docks":"15","station_id":"517"},{"number":"T32003","name":"Shetland Park - Congress at Peabody St","lat":"42.51836788","long":"-70.88952363","seasonal_status":"Year Round","municipality":"Salem","total_docks":"11","station_id":"518"},{"number":"T32004","name":"Mayor Salvo Path at Mill St","lat":"42.5180352","long":"-70.89570075","seasonal_status":"Year Round","municipality":"Salem","total_docks":"11","station_id":"519"},{"number":"T32005","name":"Salem MBTA - Washington at Federal St","lat":"42.52345239","long":"-70.89611113","seasonal_status":"Year Round","municipality":"Salem","total_docks":"13","station_id":"520"},{"number":"T32006","name":"Lafayette at Leach St","lat":"42.51142784","long":"-70.89183301","seasonal_status":"Year Round","municipality":"Salem","total_docks":"11","station_id":"521"},{"number":"T32007","name":"Salem State University - Bike Path at Loring Ave","lat":"42.50182399","long":"-70.89478076","seasonal_status":"Year Round","municipality":"Salem","total_docks":"15","station_id":"522"},{"number":"T32008","name":"Hawthorne Boulevard","lat":"42.5223714","long":"-70.8903331","seasonal_status":"Year Round","municipality":"Salem","total_docks":"9","station_id":"562"},{"number":"T32009","name":"Salem State University - North Campus","lat":"42.503332","long":"-70.891444","seasonal_status":"Year Round","municipality":"Salem","total_docks":"11","station_id":"570"},{"number":"T32011","name":"Essex St at Dalton Parkway","lat":"42.516223","long":"-70.905535","seasonal_status":"Year Round","municipality":"Salem","total_docks":"11","station_id":"572"},{"number":"T32010","name":"Forest River Park","lat":"42.506395","long":"-70.88693","seasonal_status":"Year Round","municipality":"Salem","total_docks":"11","station_id":"571"},{"number":"T32012","name":"Salem MBTA - Lower Level","lat":"42.523994","long":"-70.89684","seasonal_status":"Year Round","municipality":"Salem","total_docks":"11","station_id":"573"},{"number":"T32013","name":"Community Life Center","lat":"42.520136","long":"-70.906271","seasonal_status":"Year Round","municipality":"Salem","total_docks":"9","station_id":"574"},{"number":"T32014","name":"Goodhue St at Grove St","lat":"42.520897","long":"-70.910528","seasonal_status":"Year Round","municipality":"Salem","total_docks":"11","station_id":"575"},{"number":"T32015","name":"North St at Liberty Hill Ave","lat":"42.52989965","long":"-70.90614259","seasonal_status":"Year Round","municipality":"Salem","total_docks":"11","station_id":"589"},{"number":"T32017","name":"Vinnin Square","lat":"42.48628785","long":"-70.90166733","seasonal_status":"Year Round","municipality":"Salem","total_docks":"11","station_id":"No ID pre-March 2023"},{"number":"T32016","name":"Bridge Street Neck","lat":"42.52810052","long":"-70.88971138","seasonal_status":"Year Round","municipality":"Salem","total_docks":"11","station_id":"No ID pre-March 2023"},{"number":"T32018","name":"Derby Street","lat":"42.52009618","long":"-70.89139044","seasonal_status":"Year Round","municipality":"Salem","total_docks":"11","station_id":"No ID pre-March 2023"},{"number":"S32001","name":"Somerville City Hall","lat":"42.386844","long":"-71.09812","seasonal_status":"Year Round","municipality":"Somerville","total_docks":"19","station_id":"77"},{"number":"S32002","name":"Union Square - Somerville","lat":"42.3796479","long":"-71.09540476","seasonal_status":"Year Round","municipality":"Somerville","total_docks":"19","station_id":"78"},{"number":"S32003","name":"Beacon St at Washington / Kirkland","lat":"42.37875351","long":"-71.10707223","seasonal_status":"Year Round","municipality":"Somerville","total_docks":"19","station_id":"79"},{"number":"S32004","name":"Conway Park - Somerville Avenue","lat":"42.38363895","long":"-71.10853672","seasonal_status":"Year Round","municipality":"Somerville","total_docks":"23","station_id":"71"},{"number":"S32005","name":"Wilson Square","lat":"42.38567579","long":"-71.11412136","seasonal_status":"Year Round","municipality":"Somerville","total_docks":"15","station_id":"99"},{"number":"S32006","name":"Davis Square","lat":"42.396969","long":"-71.123024","seasonal_status":"Year Round","municipality":"Somerville","total_docks":"25","station_id":"100"},{"number":"S32007","name":"Ball Sq","lat":"42.39936816","long":"-71.11111522","seasonal_status":"Year Round","municipality":"Somerville","total_docks":"19","station_id":"101"},{"number":"S32008","name":"Powder House Circle - Nathan Tufts Park","lat":"42.400877","long":"-71.116772","seasonal_status":"Year Round","municipality":"Somerville","total_docks":"15","station_id":"102"},{"number":"S32009","name":"Packard Ave at Powderhouse Blvd","lat":"42.40449","long":"-71.123413","seasonal_status":"Year Round","municipality":"Somerville","total_docks":"15","station_id":"111"},{"number":"S32010","name":"Clarendon Hill at Broadway","lat":"42.406302","long":"-71.132446","seasonal_status":"Year Round","municipality":"Somerville","total_docks":"15","station_id":"112"},{"number":"S32011","name":"Teele Square","lat":"42.4008795","long":"-71.12590793","seasonal_status":"Year Round","municipality":"Somerville","total_docks":"15","station_id":"114"},{"number":"S32013","name":"Magoun Square at Trum Field","lat":"42.3977834","long":"-71.10594004","seasonal_status":"Year Round","municipality":"Somerville","total_docks":"19","station_id":"137"},{"number":"S32014","name":"Broadway St at Mt Pleasant St","lat":"42.38614141","long":"-71.0782814","seasonal_status":"Year Round","municipality":"Somerville","total_docks":"19","station_id":"194"},{"number":"S32015","name":"Foss Park","lat":"42.39108438","long":"-71.09039426","seasonal_status":"Year Round","municipality":"Somerville","total_docks":"15","station_id":"188"},{"number":"S32016","name":"Broadway at Central St","lat":"42.3951715","long":"-71.09850592","seasonal_status":"Year Round","municipality":"Somerville","total_docks":"19","station_id":"234"},{"number":"S32017","name":"East Somerville Library (Broadway and Illinois)","lat":"42.38762811","long":"-71.08318716","seasonal_status":"Year Round","municipality":"Somerville","total_docks":"15","station_id":"235"},{"number":"S32018","name":"Assembly Square T","lat":"42.39223284","long":"-71.07746601","seasonal_status":"Year Round","municipality":"Somerville","total_docks":"15","station_id":"236"},{"number":"S32019","name":"Grove St at Community Path","lat":"42.39638681","long":"-71.12011306","seasonal_status":"Year Round","municipality":"Somerville","total_docks":"15","station_id":"328"},{"number":"S32052","name":"Somerville Hospital","lat":"42.390413","long":"-71.108571","seasonal_status":"Year Round","municipality":"Somerville","total_docks":"15","station_id":"156"},{"number":"S32021","name":"Washington St at Myrtle St","lat":"42.38103732","long":"-71.08709779","seasonal_status":"Year Round","municipality":"Somerville","total_docks":"15","station_id":"329"},{"number":"S32022","name":"Community Path at Cedar Street","lat":"42.39407224","long":"-71.11133695","seasonal_status":"Year Round","municipality":"Somerville","total_docks":"15","station_id":"239"},{"number":"S32023","name":"30 Dane St","lat":"42.38100143","long":"-71.10402523","seasonal_status":"Year Round","municipality":"Somerville","total_docks":"15","station_id":"330"},{"number":"S32034","name":"Perry Park","lat":"42.37927325","long":"-71.10341903","seasonal_status":"Year Round","municipality":"Somerville","total_docks":"19","station_id":"377"},{"number":"S32035","name":"191 Beacon St","lat":"42.38032335","long":"-71.10878613","seasonal_status":"Year Round","municipality":"Somerville","total_docks":"19","station_id":"378"},{"number":"S32036","name":"Somerville City Hall Annex","lat":"42.39189812","long":"-71.09745376","seasonal_status":"Year Round","municipality":"Somerville","total_docks":"19","station_id":"406"},{"number":"S32037","name":"Craigie at Summer St","lat":"42.38831608","long":"-71.11068249","seasonal_status":"Year Round","municipality":"Somerville","total_docks":"19","station_id":"407"},{"number":"S32038","name":"Edgerly Education Center","lat":"42.38717463","long":"-71.08714389","seasonal_status":"Year Round","municipality":"Somerville","total_docks":"15","station_id":"408"},{"number":"S32039","name":"Elm St at White St","lat":"42.38952436","long":"-71.1169414","seasonal_status":"Year Round","municipality":"Somerville","total_docks":"19","station_id":"409"},{"number":"S32040","name":"Community Path at Lowell St","lat":"42.392525","long":"-71.105587","seasonal_status":"Year Round","municipality":"Somerville","total_docks":"19","station_id":"487"},{"number":"S32041","name":"Union Square East","lat":"42.380078","long":"-71.090098","seasonal_status":"Year Round","municipality":"Somerville","total_docks":"19","station_id":"495"},{"number":"S32046","name":"Gilman Square T at Medford St","lat":"42.3867355","long":"-71.0946444","seasonal_status":"Year Round","municipality":"Somerville","total_docks":"19","station_id":"514"},{"number":"S32047","name":"Foley St at Grand Union Blvd","lat":"42.3930184","long":"-71.08071685","seasonal_status":"Year Round","municipality":"Somerville","total_docks":"19","station_id":"530"},{"number":"S32048","name":"Somerville High School & Central Library","lat":"42.3864","long":"-71.09601","seasonal_status":"Year Round","municipality":"Somerville","total_docks":"17","station_id":"550"},{"number":"S32050","name":"Boynton Yards at 101 South Street","lat":"42.37471","long":"-71.091236","seasonal_status":"Year Round","municipality":"Somerville","total_docks":"19","station_id":"No ID pre-March 2023"},{"number":"S32053","name":"Chestnut St at Poplar St","lat":"42.377636","long":"-71.085954","seasonal_status":"Year Round","municipality":"Somerville","total_docks":"19","station_id":"No ID pre-March 2023"},{"number":"S32054","name":"Union Square Station","lat":"42.377309","long":"-71.094428","seasonal_status":"Year Round","municipality":"Somerville","total_docks":"19","station_id":"No ID pre-March 2023"},{"number":"W32001","name":"Coolidge Sq.","lat":"42.37207611","long":"-71.15683131","seasonal_status":"Year Round","municipality":"Watertown","total_docks":"12","station_id":"455"},{"number":"W32002","name":"Watertown Sq","lat":"42.36526032","long":"-71.18573324","seasonal_status":"Year Round","municipality":"Watertown","total_docks":"15","station_id":"458"},{"number":"W32004","name":"Arsenal Yards","lat":"42.36277389","long":"-71.15764854","seasonal_status":"Year Round","municipality":"Watertown","total_docks":"15","station_id":"475"},{"number":"W32005","name":"Watertown Town Hall","lat":"42.36759308","long":"-71.18751436","seasonal_status":"Year Round","municipality":"Watertown","total_docks":"11","station_id":"494"},{"number":"W32006","name":"160 Arsenal","lat":"42.36466403","long":"-71.17569387","seasonal_status":"Year Round","municipality":"Watertown","total_docks":"11","station_id":"502"},{"number":"W32007","name":"Nichols Ave. at Watertown Greenway","lat":"42.36762049","long":"-71.15656637","seasonal_status":"Year Round","municipality":"Watertown","total_docks":"12","station_id":"509"},{"number":"F32009","name":"Hickey Park","lat":"42.424981","long":"-71.098973","seasonal_status":"Year Round","municipality":"Medford","total_docks":"19","station_id":"No ID pre-March 2023"},{"number":"M32092","name":"Elevate at One Leighton","lat":"42.369931","long":"-71.073526","seasonal_status":"Year Round","municipality":"Cambridge","total_docks":"17","station_id":"No ID pre-March 2023"},{"number":"TBD - upcoming install","name":"99 Coolidge Ave","lat":"42.363706","long":"-71.151771","seasonal_status":"","municipality":"Watertown","total_docks":"","station_id":"No ID pre-March 2023"},{"number":"TBD - upcoming install","name":"Arsenal on the Charles","lat":"42.363494","long":"-71.164216","seasonal_status":"","municipality":"Watertown","total_docks":"","station_id":"No ID pre-March 2023"},{"number":"TBD - upcoming install","name":"Damrell St at Old Colony Ave","lat":"42.33239735","long":"-71.05441464","seasonal_status":"","municipality":"Boston","total_docks":"","station_id":"No ID pre-March 2023"},{"number":"TBD - upcoming install","name":"Melnea Cass Blvd at Hampden St","lat":"42.33096","long":"-71.075488","seasonal_status":"","municipality":"Boston","total_docks":"","station_id":"No ID pre-March 2023"},{"number":"TBD - upcoming install","name":"West Street","lat":"42.403517","long":"-71.063277","seasonal_status":"","municipality":"Everett","total_docks":"","station_id":"No ID pre-March 2023"},{"number":"TBD - upcoming install","name":"1515 Commonwealth Ave","lat":"42.346426","long":"-71.141581","seasonal_status":"","municipality":"Boston","total_docks":"","station_id":"No ID pre-March 2023"}]